{"pageProps":{"villages":[{"association":"Macafadenn Farmers Association Inc.","province":"Ilocos Norte","lon":"120.7939","barangay":"Nalasin","municipality":"Solsona","lat":"18.1187"},{"barangay":"Escoda","lon":"120.6875","municipality":"Marcos","lat":"18.05333","province":"Ilocos Norte","association":"Zanjera De Balbalay Farmers Association Inc."},{"lon":"120.5482","municipality":"Badoc","lat":"17.9068","association":"The Amiables of Madupayas Organic Farmers Association Inc.","province":"Ilocos Norte","barangay":"Madupayas"},{"province":"Ilocos Sur","lat":"17.2514","municipality":"San Emilio","association":"Lancuas AMIA Integrated Farming Association","barangay":"Lancuas","lon":"120.5917"},{"lon":"120.5608","lat":"17.2837","barangay":"Kalumsing","municipality":"San Emilio","association":"Kalumsing Rangtay ti Panagrang-ay Association","province":"Ilocos Sur"},{"association":"Rang-ay Association of Sibsibbu","municipality":"San Emilio","province":"Ilocos Sur","lat":"17.284","barangay":"Sibsibbu","lon":"120.5847"},{"municipality":"Lidlidda","province":"Ilocos Sur","association":"Liwliwa Asosasyon Dagiti Mannalon Inc.","barangay":"San Vicente","lat":"17.2591","lon":"120.5452"},{"municipality":"Alilem","province":"Ilocos Sur","lon":"120.5268","barangay":"Poblacion","lat":"16.8882","association":"Puso ti Kababaihan Ti Alilem Association"},{"lat":"16.7056","barangay":"Lipay Proper","lon":"120.4457","association":"Lipay Proper Farmers Association","province":"La Union","municipality":"San Gabriel"},{"province":"La Union","municipality":"Luna","lon":"120.3479","association":"Gaget Nalvo Sur Farmers Association Inc.","lat":"16.8386","barangay":"Nalvo Sur"},{"lon":"120.314","association":"City of San Fernando Community Fish Landing Center Marketing Cooperative","barangay":"Ilocanos Sur","lat":"16.6178","province":"La Union","municipality":"City of San Fernando"},{"province":"Pangasinan","lat":"16.1356","municipality":"Sison","association":"Calia Gawis Farmers Association Inc.","lon":"120.5702","barangay":"Calunetan"},{"municipality":"Anda","lon":"119.9758","association":"Anda Mushroom Growers and Organic Farmers Association Inc.","lat":"16.3106","province":"Pangasinan","barangay":"San Jose"},{"barangay":"Sta. Maria Norte","municipality":"Binalonan","association":"St. Marians Farmers Saranay Association Inc.","lat":"16.0721","lon":"120.5885","province":"Pangasinan"}],"media":{"description":"Agro-Climatic Advisory Portal-Bicol (ACAP-BICOL) serves as a centralized hub for the development of Climate Information Services (CIS) in the Bicol Region. It contains relevant weather and climate information which can be used in developing tailored advisories and crop recommendations.","url":"https://firebasestorage.googleapis.com/v0/b/amia-cis-dev.appspot.com/o/media%2Fimages%2Fopengraph%2F1200x600%2Fog_home_1200.png?alt=media&token=51f9241c-45da-456e-9906-677c2f8fe93a","path":""}},"__N_SSG":true}