{"pageProps":{"villages":[{"association":"Macafadenn Farmers Association Inc.","lat":"18.1187","province":"Ilocos Norte","barangay":"Nalasin","lon":"120.7939","municipality":"Solsona"},{"lat":"18.05333","municipality":"Marcos","lon":"120.6875","association":"Zanjera De Balbalay Farmers Association Inc.","barangay":"Escoda","province":"Ilocos Norte"},{"lat":"17.9068","lon":"120.5482","municipality":"Badoc","association":"The Amiables of Madupayas Organic Farmers Association Inc.","barangay":"Madupayas","province":"Ilocos Norte"},{"lon":"120.5917","lat":"17.2514","municipality":"San Emilio","province":"Ilocos Sur","association":"Lancuas AMIA Integrated Farming Association","barangay":"Lancuas"},{"barangay":"Kalumsing","municipality":"San Emilio","province":"Ilocos Sur","association":"Kalumsing Rangtay ti Panagrang-ay Association","lon":"120.5608","lat":"17.2837"},{"municipality":"San Emilio","barangay":"Sibsibbu","lat":"17.284","lon":"120.5847","association":"Rang-ay Association of Sibsibbu","province":"Ilocos Sur"},{"lon":"120.5452","association":"Liwliwa Asosasyon Dagiti Mannalon Inc.","province":"Ilocos Sur","barangay":"San Vicente","municipality":"Lidlidda","lat":"17.2591"},{"province":"Ilocos Sur","lon":"120.5268","association":"Puso ti Kababaihan Ti Alilem Association","lat":"16.8882","municipality":"Alilem","barangay":"Poblacion"},{"lat":"16.7056","province":"La Union","association":"Lipay Proper Farmers Association","lon":"120.4457","barangay":"Lipay Proper","municipality":"San Gabriel"},{"barangay":"Nalvo Sur","province":"La Union","municipality":"Luna","lon":"120.3479","association":"Gaget Nalvo Sur Farmers Association Inc.","lat":"16.8386"},{"barangay":"Ilocanos Sur","municipality":"City of San Fernando","association":"City of San Fernando Community Fish Landing Center Marketing Cooperative","lon":"120.314","province":"La Union","lat":"16.6178"},{"province":"Pangasinan","lat":"16.1356","barangay":"Calunetan","association":"Calia Gawis Farmers Association Inc.","lon":"120.5702","municipality":"Sison"},{"lon":"119.9758","municipality":"Anda","province":"Pangasinan","lat":"16.3106","association":"Anda Mushroom Growers and Organic Farmers Association Inc.","barangay":"San Jose"},{"municipality":"Binalonan","barangay":"Sta. Maria Norte","lon":"120.5885","association":"St. Marians Farmers Saranay Association Inc.","province":"Pangasinan","lat":"16.0721"}],"media":{"description":"Agro-Climatic Advisory Portal-Bicol (ACAP-BICOL) serves as a centralized hub for the development of Climate Information Services (CIS) in the Bicol Region. It contains relevant weather and climate information which can be used in developing tailored advisories and crop recommendations.","url":"https://firebasestorage.googleapis.com/v0/b/amia-cis-dev.appspot.com/o/media%2Fimages%2Fopengraph%2F1200x600%2Fog_home_1200.png?alt=media&token=51f9241c-45da-456e-9906-677c2f8fe93a","path":""}},"__N_SSG":true}